[{"name": "P.S. 001 THE BERGEN", "geometry": {"type": "Point", "coordinates": ["-74.0125239", "40.6491863"]}, "address": "309 47 street, NY, 11220", "borough": "Brooklyn", "type": "Feature", "principal": "Jennifer Eusanio"}, {"name": "M.S. 002", "geometry": {"type": "Point", "coordinates": ["-73.9515718", "40.6561715"]}, "address": "655 parkside avenue, NY, 11226", "borough": "Brooklyn", "type": "Feature", "principal": "ADRIENNE SPENCER"}, {"name": "P.S. 095 THE GRAVESEND", "geometry": {"type": "Point", "coordinates": ["-73.9750653", "40.5957498"]}, "address": "345 van sicklen street, NY, 11223", "borough": "Brooklyn", "type": "Feature", "principal": "Janet Ndzibah"}, {"name": "I.S. 096 SETH LOW", "geometry": {"type": "Point", "coordinates": ["-73.9844512", "40.607574"]}, "address": "99 avenue p, NY, 11204", "borough": "Brooklyn", "type": "Feature", "principal": "Denise Sandra Levinsky"}, {"name": "P.S. 97 THE HIGHLAWN", "geometry": {"type": "Point", "coordinates": ["-73.9861309", "40.6014295"]}, "address": "1855 stillwell avenue, NY, 11223", "borough": "Brooklyn", "type": "Feature", "principal": "KRISTINE MUSTILLO"}, {"name": "I.S. 98 BAY ACADEMY", "geometry": {"type": "Point", "coordinates": ["-73.9540441", "40.5831334"]}, "address": "1401 emmons avenue, NY, 11235", "borough": "Brooklyn", "type": "Feature", "principal": "MARIA TIMO"}, {"name": "P.S. 099 ISAAC ASIMOV", "geometry": {"type": "Point", "coordinates": ["-73.9657733", "40.6214616"]}, "address": "1120 east  10 street, NY, 11230", "borough": "Brooklyn", "type": "Feature", "principal": "GREGORY PIRRAGLIA"}, {"name": "P.S. 100 THE CONEY ISLAND SCHOOL", "geometry": {"type": "Point", "coordinates": ["-73.9714181", "40.5771025"]}, "address": "2951 west  3 street, NY, 11224", "borough": "Brooklyn", "type": "Feature", "principal": "Katherine A. Moloney"}, {"name": "P.S. 101 THE VERRAZANO", "geometry": {"type": "Point", "coordinates": ["-73.9917103", "40.5977281"]}, "address": "2360 benson avenue, NY, 11214", "borough": "Brooklyn", "type": "Feature", "principal": "GREGG KORROL"}, {"name": "P.S. 102 THE BAYVIEW", "geometry": {"type": "Point", "coordinates": ["-74.0292778", "40.634081"]}, "address": "211 72 street, NY, 11209", "borough": "Brooklyn", "type": "Feature", "principal": "Ms. Theresa Dovi"}, {"name": "SATELLITE THREE", "geometry": {"type": "Point", "coordinates": ["-73.9607319", "40.6850358"]}, "address": "170 gates avenue, NY, 11238", "borough": "Brooklyn", "type": "Feature", "principal": "Beatrice Thompson"}, {"name": "P.S./I.S. 104 THE FORT HAMILTON SCHOOL", "geometry": {"type": "Point", "coordinates": ["-74.0287153", "40.618213"]}, "address": "9115 5 avenue, NY, 11209", "borough": "Brooklyn", "type": "Feature", "principal": "Ms. Marie DiBella"}, {"name": "P.S. 105 THE BLYTHEBOURNE", "geometry": {"type": "Point", "coordinates": ["-74.0035836", "40.6330934"]}, "address": "1031 59 street, NY, 11219", "borough": "Brooklyn", "type": "Feature", "principal": "JOHANNA CASTRONOVO"}, {"name": "P.S. 106 EDWARD EVERETT HALE", "geometry": {"type": "Point", "coordinates": ["-73.9132348", "40.6936912"]}, "address": "1328 putnam avenue, NY, 11221", "borough": "Brooklyn", "type": "Feature", "principal": "ROBERT FLORES"}, {"name": "P.S. 107 JOHN W. KIMBALL", "geometry": {"type": "Point", "coordinates": ["-73.981201", "40.662939"]}, "address": "1301 8 avenue, NY, 11215", "borough": "Brooklyn", "type": "Feature", "principal": "CYNTHIA HOLTON"}, {"name": "P.S. 108 SAL ABBRACCIAMENTO", "geometry": {"type": "Point", "coordinates": ["-73.8840831", "40.6812954"]}, "address": "200 linwood street, NY, 11208", "borough": "Brooklyn", "type": "Feature", "principal": "CONSTANCE HAHN"}, {"name": "P.S. 109", "geometry": {"type": "Point", "coordinates": ["-73.9336676", "40.6371662"]}, "address": "1001 east  45 street, NY, 11203", "borough": "Brooklyn", "type": "Feature", "principal": "Joan Thomas"}, {"name": "P.S. 110 THE MONITOR", "geometry": {"type": "Point", "coordinates": ["-73.9421647", "40.7235599"]}, "address": "124 monitor street, NY, 11222", "borough": "Brooklyn", "type": "Feature", "principal": "ANNA CANO AMATO"}, {"name": "P.S. 112 LEFFERTS PARK", "geometry": {"type": "Point", "coordinates": ["-74.0009875", "40.6195857"]}, "address": "7115 15 avenue, NY, 11228", "borough": "Brooklyn", "type": "Feature", "principal": "Louise Verdemare (Alfano)"}, {"name": "M.S. 113 RONALD EDMONDS LEARNING CENTER", "geometry": {"type": "Point", "coordinates": ["-73.9710469", "40.6883574"]}, "address": "300 adelphi street, NY, 11205", "borough": "Brooklyn", "type": "Feature", "principal": "Dawnique Daughtry"}, {"name": "P.S. 114 RYDER ELEMENTARY", "geometry": {"type": "Point", "coordinates": ["-73.9080868", "40.6424647"]}, "address": "1077 remsen avenue, NY, 11236", "borough": "Brooklyn", "type": "Feature", "principal": "Darwin Smith"}, {"name": "P.S. 115 DANIEL MUCATEL SCHOOL", "geometry": {"type": "Point", "coordinates": ["-73.8972682", "40.6349363"]}, "address": "1500 east  92 street, NY, 11236", "borough": "Brooklyn", "type": "Feature", "principal": "Denis Guerin"}, {"name": "P.S. 116 ELIZABETH L FARRELL", "geometry": {"type": "Point", "coordinates": ["-73.9164301", "40.6977331"]}, "address": "515 knickerbocker avenue, NY, 11237", "borough": "Brooklyn", "type": "Feature", "principal": "SEIW KONG"}, {"name": "P.S. 119 AMERSFORT", "geometry": {"type": "Point", "coordinates": ["-73.9385115", "40.6256472"]}, "address": "3829 avenue k, NY, 11210", "borough": "Brooklyn", "type": "Feature", "principal": "LISA FERNANDEZ"}, {"name": "P.S. 120 CARLOS TAPIA", "geometry": {"type": "Point", "coordinates": ["-73.9387687", "40.7008554"]}, "address": "18 beaver street, NY, 11206", "borough": "Brooklyn", "type": "Feature", "principal": "Liza Caraballo"}, {"name": "P.S. 121 NELSON A. ROCKEFELLER", "geometry": {"type": "Point", "coordinates": ["-73.9787755", "40.6233087"]}, "address": "5301 20 avenue, NY, 11204", "borough": "Brooklyn", "type": "Feature", "principal": "LILLIAN CATALANO"}, {"name": "P.S. 123 SUYDAM", "geometry": {"type": "Point", "coordinates": ["-73.9225677", "40.7036615"]}, "address": "100 irving avenue, NY, 11237", "borough": "Brooklyn", "type": "Feature", "principal": "VERONICA GREENE"}, {"name": "P.S. 124 SILAS B. DUTCHER", "geometry": {"type": "Point", "coordinates": ["-73.9909946", "40.6674977"]}, "address": "515 4 avenue, NY, 11215", "borough": "Brooklyn", "type": "Feature", "principal": "Annabelle Martinez"}, {"name": "JOHN ERICSSON MIDDLE SCHOOL 126", "geometry": {"type": "Point", "coordinates": ["-73.9484181", "40.719768"]}, "address": "424 leonard street, NY, 11222", "borough": "Brooklyn", "type": "Feature", "principal": "ROSEMARY OCHOA"}, {"name": "P.S. 127 MCKINLEY PARK", "geometry": {"type": "Point", "coordinates": ["-74.018435", "40.623654"]}, "address": "7805 7 avenue, NY, 11228", "borough": "Brooklyn", "type": "Feature", "principal": "Agatha Alicandro"}, {"name": "P.S. 128 BENSONHURST", "geometry": {"type": "Point", "coordinates": ["-73.9951853", "40.6048118"]}, "address": "2075 84 street, NY, 11214", "borough": "Brooklyn", "type": "Feature", "principal": "MARCIA ROBINS"}, {"name": "P.S. 130 THE PARKSIDE", "geometry": {"type": "Point", "coordinates": ["-73.9755614", "40.6487556"]}, "address": "70 ocean parkway, NY, 11218", "borough": "Brooklyn", "type": "Feature", "principal": "MARIA NUNZIATA"}, {"name": "P.S. 131 BROOKLYN", "geometry": {"type": "Point", "coordinates": ["-73.9936539", "40.6410276"]}, "address": "4305 ft hamilton parkway, NY, 11219", "borough": "Brooklyn", "type": "Feature", "principal": "RUTH QUILES"}, {"name": "P.S. 132 THE CONSELYEA SCHOOL", "geometry": {"type": "Point", "coordinates": ["-73.9461092", "40.7147146"]}, "address": "320 manhattan avenue, NY, 11211", "borough": "Brooklyn", "type": "Feature", "principal": "BETH LUBECK"}, {"name": "P.S. K134", "geometry": {"type": "Point", "coordinates": ["-73.9731193", "40.6326402"]}, "address": "4001 18 avenue, NY, 11218", "borough": "Brooklyn", "type": "Feature", "principal": "DEBRA RAMSARAN"}, {"name": "P.S. 135 SHELDON A. BROOKNER", "geometry": {"type": "Point", "coordinates": ["-73.9330681", "40.6534118"]}, "address": "684 linden boulevard, NY, 11203", "borough": "Brooklyn", "type": "Feature", "principal": "Trevlyn Mcrae"}, {"name": "I.S. 136 CHARLES O. DEWEY", "geometry": {"type": "Point", "coordinates": ["-74.00687", "40.6520789"]}, "address": "4004 4 avenue, NY, 11232", "borough": "Brooklyn", "type": "Feature", "principal": "ERIC SACKLER"}, {"name": "P.S./I.S. 137 RACHEL JEAN MITCHELL", "geometry": {"type": "Point", "coordinates": ["-73.916631", "40.682234"]}, "address": "121 saratoga avenue, NY, 11233", "borough": "Brooklyn", "type": "Feature", "principal": "Winston Riley"}, {"name": "P.S. 138 BROOKLYN", "geometry": {"type": "Point", "coordinates": ["-73.951528", "40.673939"]}, "address": "760 prospect place, NY, 11216", "borough": "Brooklyn", "type": "Feature", "principal": "Ms. Marie Chauvet-Monchik"}, {"name": "P.S. 139 ALEXINE A. FENTY", "geometry": {"type": "Point", "coordinates": ["-73.9658539", "40.641318"]}, "address": "330 rugby road, NY, 11226", "borough": "Brooklyn", "type": "Feature", "principal": "MARY MCDONALD"}, {"name": "P.S. K140", "geometry": {"type": "Point", "coordinates": ["-73.9070048", "40.6557176"]}, "address": "985 rockaway avenue, NY, 11212", "borough": "Brooklyn", "type": "Feature", "principal": "MICHELLE CARPENTER"}, {"name": "P.S. K141", "geometry": {"type": "Point", "coordinates": ["-73.9515718", "40.6561715"]}, "address": "655 parkside avenue, NY, 11226", "borough": "Brooklyn", "type": "Feature", "principal": "MICHELE THORNTON MANNIX"}, {"name": "P.S. 145 ANDREW JACKSON", "geometry": {"type": "Point", "coordinates": ["-73.9323859", "40.7016266"]}, "address": "100 noll street, NY, 11206", "borough": "Brooklyn", "type": "Feature", "principal": "MARILYN TORRES"}, {"name": "P.S. 146", "geometry": {"type": "Point", "coordinates": ["-74.002027", "40.679453"]}, "address": "610 henry street, NY, 11231", "borough": "Brooklyn", "type": "Feature", "principal": "ANNA ALLANBROOK"}, {"name": "P.S. 147 ISSAC REMSEN", "geometry": {"type": "Point", "coordinates": ["-73.9395468", "40.7046373"]}, "address": "325 bushwick avenue, NY, 11206", "borough": "Brooklyn", "type": "Feature", "principal": "JULIA DRAKE"}, {"name": "P.S. 149 DANNY KAYE", "geometry": {"type": "Point", "coordinates": ["-73.8928276", "40.6697148"]}, "address": "700 sutter avenue, NY, 11207", "borough": "Brooklyn", "type": "Feature", "principal": "ENID SILVERA"}, {"name": "P.S. 150 CHRISTOPHER", "geometry": {"type": "Point", "coordinates": ["-73.9047039", "40.6689046"]}, "address": "364 sackman street, NY, 11212", "borough": "Brooklyn", "type": "Feature", "principal": "Pamela Bradley Muchere"}, {"name": "P.S. 151 LYNDON B. JOHNSON", "geometry": {"type": "Point", "coordinates": ["-73.9086882", "40.6933313"]}, "address": "763 knickerbocker avenue, NY, 11207", "borough": "Brooklyn", "type": "Feature", "principal": "Maria Anaya"}, {"name": "SCHOOL OF SCIENCE & TECHNOLOGY", "geometry": {"type": "Point", "coordinates": ["-73.9546723", "40.6323259"]}, "address": "725 east  23 street, NY, 11210", "borough": "Brooklyn", "type": "Feature", "principal": "Dr. Rhonda D. Farkas"}, {"name": "P.S. 153 HOMECREST", "geometry": {"type": "Point", "coordinates": ["-73.960011", "40.601165"]}, "address": "1970 homecrest avenue, NY, 11229", "borough": "Brooklyn", "type": "Feature", "principal": "Carl SantaMaria"}, {"name": "MAGNET SCHOOL FOR SCIENCE & TECHNOLOGY", "geometry": {"type": "Point", "coordinates": ["-73.97597", "40.656995"]}, "address": "1625 11 avenue, NY, 11215", "borough": "Brooklyn", "type": "Feature", "principal": "SAMUEL ORTIZ"}, {"name": "P.S./ I.S. 155 NICHOLAS HERKIMER", "geometry": {"type": "Point", "coordinates": ["-73.9087675", "40.6774159"]}, "address": "1355 herkimer street, NY, 11233", "borough": "Brooklyn", "type": "Feature", "principal": "NELLY CORTES"}, {"name": "P.S. 156 WAVERLY", "geometry": {"type": "Point", "coordinates": ["-73.9181332", "40.6659512"]}, "address": "104 sutter avenue, NY, 11212", "borough": "Brooklyn", "type": "Feature", "principal": "BEVERLY LOGAN"}, {"name": "P.S. 157 BENJAMIN FRANKLIN", "geometry": {"type": "Point", "coordinates": ["-73.959591", "40.6954719"]}, "address": "850 kent avenue, NY, 11205", "borough": "Brooklyn", "type": "Feature", "principal": "MARIBEL TORRES"}, {"name": "P.S. 158 WARWICK", "geometry": {"type": "Point", "coordinates": ["-73.885211", "40.672581"]}, "address": "400 ashford street, NY, 11207", "borough": "Brooklyn", "type": "Feature", "principal": "AUDREY WILSON"}, {"name": "P.S. 159 ISAAC PITKIN", "geometry": {"type": "Point", "coordinates": ["-73.869676", "40.676117"]}, "address": "2781 pitkin avenue, NY, 11208", "borough": "Brooklyn", "type": "Feature", "principal": "MONICA DUNCAN"}, {"name": "P.S. 161 THE CROWN", "geometry": {"type": "Point", "coordinates": ["-73.949154", "40.666079"]}, "address": "330 crown street, NY, 11225", "borough": "Brooklyn", "type": "Feature", "principal": "Ms. Deborah Barrett"}, {"name": "J.H.S. 162 THE WILLOUGHBY", "geometry": {"type": "Point", "coordinates": ["-73.9197943", "40.7072263"]}, "address": "1390 willoughby avenue, NY, 11237", "borough": "Brooklyn", "type": "Feature", "principal": "Barbara DeMartino"}, {"name": "P.S. 164 CAESAR RODNEY", "geometry": {"type": "Point", "coordinates": ["-73.9860749", "40.6371835"]}, "address": "4211 14 avenue, NY, 11219", "borough": "Brooklyn", "type": "Feature", "principal": "Margaret Choy-Shan"}, {"name": "P.S. 165 IDA POSNER", "geometry": {"type": "Point", "coordinates": ["-73.9110918", "40.6574242"]}, "address": "76 lott avenue, NY, 11212", "borough": "Brooklyn", "type": "Feature", "principal": "Fran Ellers"}, {"name": "J.H.S. 166 GEORGE GERSHWIN", "geometry": {"type": "Point", "coordinates": ["-73.8854288", "40.6599779"]}, "address": "800 van siclen ave, NY, 11207", "borough": "Brooklyn", "type": "Feature", "principal": "MARIA ORTEGA"}, {"name": "P.S. 167 THE PARKWAY", "geometry": {"type": "Point", "coordinates": ["-73.9343392", "40.6690343"]}, "address": "1025 eastern parkway, NY, 11213", "borough": "Brooklyn", "type": "Feature", "principal": "MARC MARDY"}, {"name": "P.S. 169 SUNSET PARK", "geometry": {"type": "Point", "coordinates": ["-74.001648", "40.6457849"]}, "address": "4305 7 avenue, NY, 11232", "borough": "Brooklyn", "type": "Feature", "principal": "JOSEPHINE SANTIAGO"}, {"name": "P.S. 170 LEXINGTON", "geometry": {"type": "Point", "coordinates": ["-74.018707", "40.63037"]}, "address": "7109 6 avenue, NY, 11209", "borough": "Brooklyn", "type": "Feature", "principal": "Zhen (Tony) Wu"}, {"name": "I.S. 171 ABRAHAM LINCOLN", "geometry": {"type": "Point", "coordinates": ["-73.869429", "40.685841"]}, "address": "528 ridgewood avenue, NY, 11208", "borough": "Brooklyn", "type": "Feature", "principal": "YOLANDA FUSTANIO"}, {"name": "P.S. 172 BEACON SCHOOL OF EXCELLENCE", "geometry": {"type": "Point", "coordinates": ["-74.0006962", "40.6577557"]}, "address": "825 4 avenue, NY, 11232", "borough": "Brooklyn", "type": "Feature", "principal": "Jack Spatola"}, {"name": "P.S. 174 DUMONT", "geometry": {"type": "Point", "coordinates": ["-73.8979903", "40.6657305"]}, "address": "574 dumont avenue, NY, 11207", "borough": "Brooklyn", "type": "Feature", "principal": "INGRID MASON"}, {"name": "P.S. 176 OVINGTON", "geometry": {"type": "Point", "coordinates": ["-74.0055328", "40.624711"]}, "address": "1225 69 street, NY, 11219", "borough": "Brooklyn", "type": "Feature", "principal": "ELIZABETH CULKIN"}, {"name": "P.S. 177 THE MARLBORO", "geometry": {"type": "Point", "coordinates": ["-73.974424", "40.608167"]}, "address": "346 avenue p, NY, 11204", "borough": "Brooklyn", "type": "Feature", "principal": "SHOSHANA SINGER"}, {"name": "P.S. 178 SAINT CLAIR MCKELWAY", "geometry": {"type": "Point", "coordinates": ["-73.9153816", "40.6750632"]}, "address": "2163 dean street, NY, 11233", "borough": "Brooklyn", "type": "Feature", "principal": "JOSEPH FRANTZ HENRY"}, {"name": "P.S. 179 KENSINGTON", "geometry": {"type": "Point", "coordinates": ["-73.977256", "40.640134"]}, "address": "202 avenue c, NY, 11218", "borough": "Brooklyn", "type": "Feature", "principal": "VALERIE JOSEPH"}, {"name": "P.S. 180 HOMEWOOD", "geometry": {"type": "Point", "coordinates": ["-73.989612", "40.6266652"]}, "address": "5601 16 avenue, NY, 11204", "borough": "Brooklyn", "type": "Feature", "principal": "GARY WILLIAMS"}, {"name": "P.S. 181 BROOKLYN", "geometry": {"type": "Point", "coordinates": ["-73.9464105", "40.6479339"]}, "address": "1023 new york avenue, NY, 11203", "borough": "Brooklyn", "type": "Feature", "principal": "LOWELL COLEMAN"}, {"name": "P.S. 184 NEWPORT", "geometry": {"type": "Point", "coordinates": ["-73.905005", "40.660369"]}, "address": "273 newport street, NY, 11212", "borough": "Brooklyn", "type": "Feature", "principal": "LAMSON LAM"}, {"name": "P.S. 185 WALTER KASSENBROCK", "geometry": {"type": "Point", "coordinates": ["-74.0336892", "40.6237435"]}, "address": "8601 ridge boulevard, NY, 11209", "borough": "Brooklyn", "type": "Feature", "principal": "KENNETH LLINAS"}, {"name": "P.S. 186 DR. IRVING A GLADSTONE", "geometry": {"type": "Point", "coordinates": ["-73.9946421", "40.6112276"]}, "address": "7601 19 avenue, NY, 11214", "borough": "Brooklyn", "type": "Feature", "principal": "Bayan (Ebeid) Cadotte"}, {"name": "I.S. 187", "geometry": {"type": "Point", "coordinates": ["-74.0040163", "40.6275072"]}, "address": "1171 65 street, NY, 11219", "borough": "Brooklyn", "type": "Feature", "principal": "JUSTIN BERMAN"}, {"name": "P.S. 188 MICHAEL E. BERDY", "geometry": {"type": "Point", "coordinates": ["-74.0005927", "40.5771765"]}, "address": "3314 neptune avenue, NY, 11224", "borough": "Brooklyn", "type": "Feature", "principal": "Frederick M.  Tudda"}, {"name": "P.S. 189 LINCOLN TERRACE", "geometry": {"type": "Point", "coordinates": ["-73.9263612", "40.6655107"]}, "address": "1100 east new york avenue, NY, 11212", "borough": "Brooklyn", "type": "Feature", "principal": "Ms. Berthe G. Faustin"}, {"name": "P.S. 190 SHEFFIELD", "geometry": {"type": "Point", "coordinates": ["-73.8944572", "40.6623466"]}, "address": "590 sheffield avenue, NY, 11207", "borough": "Brooklyn", "type": "Feature", "principal": "STEPHAUN HILL"}, {"name": "P.S. 191 PAUL ROBESON", "geometry": {"type": "Point", "coordinates": ["-73.924118", "40.671721"]}, "address": "1600 park place, NY, 11233", "borough": "Brooklyn", "type": "Feature", "principal": "Mrs. Elsi Capolongo"}, {"name": "P.S. 192 BROOKLYN", "geometry": {"type": "Point", "coordinates": ["-73.979549", "40.628774"]}, "address": "4715 18 avenue, NY, 11204", "borough": "Brooklyn", "type": "Feature", "principal": "LISET ISAAC"}, {"name": "P.S. 193 GIL HODGES", "geometry": {"type": "Point", "coordinates": ["-73.950327", "40.622063"]}, "address": "2515 avenue l, NY, 11210", "borough": "Brooklyn", "type": "Feature", "principal": "Frank A. Cimino"}, {"name": "P.S. 194 RAOUL WALLENBERG", "geometry": {"type": "Point", "coordinates": ["-73.9334314", "40.5967651"]}, "address": "3117 avenue w, NY, 11229", "borough": "Brooklyn", "type": "Feature", "principal": "Mary Zissler-Lynch"}, {"name": "P.S. 195 MANHATTAN BEACH", "geometry": {"type": "Point", "coordinates": ["-73.943779", "40.5799773"]}, "address": "131 irwin street, NY, 11235", "borough": "Brooklyn", "type": "Feature", "principal": "ARTHUR FORMAN"}, {"name": "P.S. 196 TEN EYCK", "geometry": {"type": "Point", "coordinates": ["-73.9398221", "40.7087556"]}, "address": "207 bushwick avenue, NY, 11206", "borough": "Brooklyn", "type": "Feature", "principal": "Janine Colon"}, {"name": "P.S. 197 BROOKLYN", "geometry": {"type": "Point", "coordinates": ["-73.9516203", "40.6111184"]}, "address": "1599 east  22 street, NY, 11210", "borough": "Brooklyn", "type": "Feature", "principal": "Rosemarie Barbiere Nicolet*"}, {"name": "P.S. 198 BROOKLYN", "geometry": {"type": "Point", "coordinates": ["-73.9374647", "40.6369349"]}, "address": "4105 farragut road, NY, 11210", "borough": "Brooklyn", "type": "Feature", "principal": "Joy-Ann Morgan"}, {"name": "P.S. 199 FREDERICK WACHTEL", "geometry": {"type": "Point", "coordinates": ["-73.963547", "40.6166128"]}, "address": "1100 elm avenue, NY, 11230", "borough": "Brooklyn", "type": "Feature", "principal": "ROSALIA BACARELLA"}, {"name": "P.S. 200 BENSON SCHOOL", "geometry": {"type": "Point", "coordinates": ["-74.0013907", "40.6031664"]}, "address": "1940 benson avenue, NY, 11214", "borough": "Brooklyn", "type": "Feature", "principal": "JAVIER MUNIZ"}, {"name": "J.H.S. 201 THE DYKER HEIGHTS", "geometry": {"type": "Point", "coordinates": ["-74.013746", "40.619031"]}, "address": "8010 12 avenue, NY, 11228", "borough": "Brooklyn", "type": "Feature", "principal": "Ms. Madeleine Brennan"}, {"name": "P.S. 202 ERNEST S. JENKYNS", "geometry": {"type": "Point", "coordinates": ["-73.8765699", "40.6664086"]}, "address": "982 hegeman avenue, NY, 11208", "borough": "Brooklyn", "type": "Feature", "principal": "Pauline Smith-Gayle"}, {"name": "P.S. 203 FLOYD BENNETT", "geometry": {"type": "Point", "coordinates": ["-73.9261416", "40.6214177"]}, "address": "5101 avenue m, NY, 11234", "borough": "Brooklyn", "type": "Feature", "principal": "LISA ESPOSITO"}, {"name": "P.S. 204 VINCE LOMBARDI", "geometry": {"type": "Point", "coordinates": ["-74.006117", "40.613528"]}, "address": "8101 15 avenue, NY, 11228", "borough": "Brooklyn", "type": "Feature", "principal": "Mrs. Marie Reilly"}, {"name": "P.S. 205 CLARION", "geometry": {"type": "Point", "coordinates": ["-73.986793", "40.614745"]}, "address": "6701 20 avenue, NY, 11204", "borough": "Brooklyn", "type": "Feature", "principal": "BETH GRATER"}, {"name": "P.S. 206 JOSEPH F LAMB", "geometry": {"type": "Point", "coordinates": ["-73.949034", "40.597334"]}, "address": "2200 gravesend neck road, NY, 11229", "borough": "Brooklyn", "type": "Feature", "principal": "DEIRDRE KEYES"}, {"name": "P.S. 207 ELIZABETH G. LEARY", "geometry": {"type": "Point", "coordinates": ["-73.9298869", "40.613513"]}, "address": "4011 fillmore avenue, NY, 11234", "borough": "Brooklyn", "type": "Feature", "principal": "MARY BOSCO"}, {"name": "P.S. 208 ELSA EBELING", "geometry": {"type": "Point", "coordinates": ["-73.9309", "40.642701"]}, "address": "4801 avenue d, NY, 11203", "borough": "Brooklyn", "type": "Feature", "principal": "Ms. Kristy Parris"}, {"name": "P.S. 209 MARGARET MEAD", "geometry": {"type": "Point", "coordinates": ["-73.9619229", "40.5868934"]}, "address": "2609 east  7 street, NY, 11235", "borough": "Brooklyn", "type": "Feature", "principal": "Frances Locurcio"}, {"name": "I.S. 211 JOHN WILSON", "geometry": {"type": "Point", "coordinates": ["-73.8964704", "40.6435042"]}, "address": "1001 east 100 street, NY, 11236", "borough": "Brooklyn", "type": "Feature", "principal": "Buffie Simmons-Peart"}, {"name": "P.S. 212 LADY DEBORAH MOODY", "geometry": {"type": "Point", "coordinates": ["-73.9857901", "40.5877534"]}, "address": "87 bay  49 street, NY, 11214", "borough": "Brooklyn", "type": "Feature", "principal": "JOSEPHINE MARSELLA"}, {"name": "P.S. 213 NEW LOTS", "geometry": {"type": "Point", "coordinates": ["-73.8902658", "40.6605118"]}, "address": "580 hegeman avenue, NY, 11207", "borough": "Brooklyn", "type": "Feature", "principal": "Anne Lee Bernard"}, {"name": "P.S. 214 MICHAEL FRIEDSAM", "geometry": {"type": "Point", "coordinates": ["-73.8631205", "40.6765096"]}, "address": "2944 pitkin avenue, NY, 11208", "borough": "Brooklyn", "type": "Feature", "principal": "PATRICIA TUBRIDY"}, {"name": "P.S.  215  MORRIS H.  WEISS", "geometry": {"type": "Point", "coordinates": ["-73.9700169", "40.6020958"]}, "address": "415 avenue s, NY, 11223", "borough": "Brooklyn", "type": "Feature", "principal": "ANTONELLA BOVE"}, {"name": "P.S. 216 ARTURO TOSCANINI", "geometry": {"type": "Point", "coordinates": ["-73.9697241", "40.5904075"]}, "address": "350 avenue x, NY, 11223", "borough": "Brooklyn", "type": "Feature", "principal": "CELIA KAPLINSKY"}, {"name": "P.S. 217 COLONEL DAVID MARCUS SCHOOL", "geometry": {"type": "Point", "coordinates": ["-73.9663231", "40.6340585"]}, "address": "1100 newkirk avenue, NY, 11230", "borough": "Brooklyn", "type": "Feature", "principal": "FRANCA CONTI"}, {"name": "J.H.S. 218 JAMES P. SINNOTT", "geometry": {"type": "Point", "coordinates": ["-73.8744395", "40.6706544"]}, "address": "370 fountain avenue, NY, 11208", "borough": "Brooklyn", "type": "Feature", "principal": "Alison Breedy"}, {"name": "P.S. 219 KENNEDY-KING", "geometry": {"type": "Point", "coordinates": ["-73.922289", "40.658823"]}, "address": "1060 clarkson avenue, NY, 11212", "borough": "Brooklyn", "type": "Feature", "principal": "Ms. Winsome Smith"}, {"name": "J.H.S. 220 JOHN J. PERSHING", "geometry": {"type": "Point", "coordinates": ["-74.000824", "40.6407819"]}, "address": "4812 9 avenue, NY, 11220", "borough": "Brooklyn", "type": "Feature", "principal": "LORETTA WITEK"}, {"name": "P.S. 221 TOUSSAINT L'OUVERTURE", "geometry": {"type": "Point", "coordinates": ["-73.9358136", "40.6638146"]}, "address": "791 empire boulevard, NY, 11213", "borough": "Brooklyn", "type": "Feature", "principal": "Clara Moodie-Kirkland"}, {"name": "P.S. 222 KATHERINE R. SNYDER", "geometry": {"type": "Point", "coordinates": ["-73.9389747", "40.6132552"]}, "address": "3301 quentin road, NY, 11234", "borough": "Brooklyn", "type": "Feature", "principal": "LOUISE BLAKE"}, {"name": "J.H.S. 223 THE MONTAUK", "geometry": {"type": "Point", "coordinates": ["-73.9814523", "40.6349581"]}, "address": "4200 16 avenue, NY, 11204", "borough": "Brooklyn", "type": "Feature", "principal": "ANDREW FRANK"}, {"name": "P.S. 224 HALE A. WOODRUFF", "geometry": {"type": "Point", "coordinates": ["-73.865954", "40.664876"]}, "address": "757 wortman avenue, NY, 11208", "borough": "Brooklyn", "type": "Feature", "principal": "GEORGE ANDREWS"}, {"name": "P.S. K225 - THE EILEEN E. ZAGLIN", "geometry": {"type": "Point", "coordinates": ["-73.9564352", "40.5797915"]}, "address": "1075 ocean view avenue, NY, 11235", "borough": "Brooklyn", "type": "Feature", "principal": "JOSEPH MONTEBELLO"}, {"name": "P.S. 226 ALFRED DE B.MASON", "geometry": {"type": "Point", "coordinates": ["-73.9766987", "40.6152094"]}, "address": "6006 23 avenue, NY, 11204", "borough": "Brooklyn", "type": "Feature", "principal": "SHERRY TANNENBAUM"}, {"name": "J.H.S. 227 EDWARD B. SHALLOW", "geometry": {"type": "Point", "coordinates": ["-73.995962", "40.622094"]}, "address": "6500 16 avenue, NY, 11204", "borough": "Brooklyn", "type": "Feature", "principal": "Brenda D. Champion"}, {"name": "I.S. 228 DAVID A. BOODY", "geometry": {"type": "Point", "coordinates": ["-73.9769204", "40.6011155"]}, "address": "228 avenue s, NY, 11223", "borough": "Brooklyn", "type": "Feature", "principal": "DOMINICK D'ANGELO"}, {"name": "P.S. 229 DYKER", "geometry": {"type": "Point", "coordinates": ["-74.013597", "40.610323"]}, "address": "1400 benson avenue, NY, 11228", "borough": "Brooklyn", "type": "Feature", "principal": "Robert Zappulla"}, {"name": "P.S. 230 DORIS L. COHEN", "geometry": {"type": "Point", "coordinates": ["-73.9809074", "40.645006"]}, "address": "1 albemarle road, NY, 11218", "borough": "Brooklyn", "type": "Feature", "principal": "SHARON FIDEN"}, {"name": "P.S. K231", "geometry": {"type": "Point", "coordinates": ["-73.989612", "40.6266652"]}, "address": "5601 16 avenue, NY, 11204", "borough": "Brooklyn", "type": "Feature", "principal": "Christina Foti"}, {"name": "P.S. 233 LANGSTON HUGHES", "geometry": {"type": "Point", "coordinates": ["-73.9139583", "40.6511203"]}, "address": "9301 avenue b, NY, 11236", "borough": "Brooklyn", "type": "Feature", "principal": "DENEAN STEPHENS-SPELLMAN"}, {"name": "J.H.S. 234 ARTHUR W. CUNNINGHAM", "geometry": {"type": "Point", "coordinates": ["-73.9556519", "40.6050652"]}, "address": "1875 east  17 street, NY, 11229", "borough": "Brooklyn", "type": "Feature", "principal": "SUSAN SCHAEFFER"}, {"name": "P.S. 235 LENOX", "geometry": {"type": "Point", "coordinates": ["-73.9410042", "40.6547126"]}, "address": "525 lenox road, NY, 11203", "borough": "Brooklyn", "type": "Feature", "principal": "LISA SOLITARIO"}, {"name": "P.S. 236 MILL BASIN", "geometry": {"type": "Point", "coordinates": ["-73.9128206", "40.6158863"]}, "address": "6302 avenue u, NY, 11234", "borough": "Brooklyn", "type": "Feature", "principal": "Mary Theresa Nelson"}, {"name": "P.S. 238 ANNE SULLIVAN", "geometry": {"type": "Point", "coordinates": ["-73.9648649", "40.6086767"]}, "address": "1633 east  8 street, NY, 11223", "borough": "Brooklyn", "type": "Feature", "principal": "Harla Joy Musoff-Weiss"}, {"name": "MARK TWAIN I.S. 239 FOR THE GIFTED & TALENTED", "geometry": {"type": "Point", "coordinates": ["-73.9923972", "40.5784581"]}, "address": "2401 neptune avenue, NY, 11224", "borough": "Brooklyn", "type": "Feature", "principal": "CAROL MOORE"}, {"name": "ANDRIES HUDDE", "geometry": {"type": "Point", "coordinates": ["-73.9464281", "40.6237772"]}, "address": "2500 nostrand avenue, NY, 11210", "borough": "Brooklyn", "type": "Feature", "principal": "Elena S. O'Sullivan"}, {"name": "P.S. 241 EMMA L. JOHNSTON", "geometry": {"type": "Point", "coordinates": ["-73.9599369", "40.6691524"]}, "address": "976 president street, NY, 11225", "borough": "Brooklyn", "type": "Feature", "principal": "Frantz Lucius"}, {"name": "P.S. 243 WEEKSVILLE", "geometry": {"type": "Point", "coordinates": ["-73.9355695", "40.6760099"]}, "address": "1580 dean street, NY, 11213", "borough": "Brooklyn", "type": "Feature", "principal": "KAREN HAMBRIGHT-GLOVE"}, {"name": "P.S. 244 RICHARD R. GREEN", "geometry": {"type": "Point", "coordinates": ["-73.9256902", "40.648275"]}, "address": "5404 tilden avenue, NY, 11203", "borough": "Brooklyn", "type": "Feature", "principal": "Ms. Grace Alesia"}, {"name": "P.S. 245", "geometry": {"type": "Point", "coordinates": ["-73.9630291", "40.6447226"]}, "address": "249 east 17th street, NY, 11226", "borough": "Brooklyn", "type": "Feature", "principal": "Pat Kannengieser"}, {"name": "M.S. 246 WALT WHITMAN", "geometry": {"type": "Point", "coordinates": ["-73.9531324", "40.6483745"]}, "address": "72 veronica place, NY, 11226", "borough": "Brooklyn", "type": "Feature", "principal": "BENTLY WARRINGTON"}, {"name": "P.S. 247 BROOKLYN", "geometry": {"type": "Point", "coordinates": ["-73.987193", "40.612246"]}, "address": "7000 21 avenue, NY, 11204", "borough": "Brooklyn", "type": "Feature", "principal": "Christopher E. Ogno"}, {"name": "P.S. 249 THE CATON", "geometry": {"type": "Point", "coordinates": ["-73.9660851", "40.6498584"]}, "address": "18 marlborough road, NY, 11226", "borough": "Brooklyn", "type": "Feature", "principal": "Ms. Elisa Brown"}, {"name": "P.S. 250 GEORGE H. LINDSAY", "geometry": {"type": "Point", "coordinates": ["-73.945153", "40.7071303"]}, "address": "108 montrose avenue, NY, 11206", "borough": "Brooklyn", "type": "Feature", "principal": "NORA BARNES"}, {"name": "P.S. 251 PAEDERGAT", "geometry": {"type": "Point", "coordinates": ["-73.92388", "40.631938"]}, "address": "1037 east  54 street, NY, 11234", "borough": "Brooklyn", "type": "Feature", "principal": "STEVEN BOYER"}, {"name": "P.S. 253", "geometry": {"type": "Point", "coordinates": ["-73.9619519", "40.5799332"]}, "address": "601 oceanview avenue, NY, 11235", "borough": "Brooklyn", "type": "Feature", "principal": "Lisa Speroni"}, {"name": "P.S. 254 DAG HAMMARSKJOLD", "geometry": {"type": "Point", "coordinates": ["-73.951555", "40.591092"]}, "address": "1801 avenue y, NY, 11235", "borough": "Brooklyn", "type": "Feature", "principal": "LINDA ALHONOTE"}, {"name": "P.S. 255 BARBARA REING SCHOOL", "geometry": {"type": "Point", "coordinates": ["-73.9556849", "40.6050414"]}, "address": "1866 east  17 street, NY, 11229", "borough": "Brooklyn", "type": "Feature", "principal": "Linda L. Singer"}, {"name": "P.S. 256 BENJAMIN BANNEKER", "geometry": {"type": "Point", "coordinates": ["-73.9502737", "40.6906304"]}, "address": "114 kosciusko street, NY, 11216", "borough": "Brooklyn", "type": "Feature", "principal": "SHARYN HEMPHILL"}, {"name": "P.S. 257 JOHN F. HYLAN", "geometry": {"type": "Point", "coordinates": ["-73.9417242", "40.7023944"]}, "address": "60 cook street, NY, 11206", "borough": "Brooklyn", "type": "Feature", "principal": "Brian Leavy-DeVale"}, {"name": "J.H.S. 259 WILLIAM MCKINLEY", "geometry": {"type": "Point", "coordinates": ["-74.0152513", "40.6265801"]}, "address": "7305 ft hamilton parkway, NY, 11228", "borough": "Brooklyn", "type": "Feature", "principal": "JANICE GEARY"}, {"name": "P.S. 260 BREUCKELEN", "geometry": {"type": "Point", "coordinates": ["-73.8947645", "40.6539573"]}, "address": "875 williams avenue, NY, 11207", "borough": "Brooklyn", "type": "Feature", "principal": "PIERRE RAYMOND"}, {"name": "P.S. 261 PHILIP LIVINGSTON", "geometry": {"type": "Point", "coordinates": ["-73.9879024", "40.6873071"]}, "address": "314 pacific street, NY, 11201", "borough": "Brooklyn", "type": "Feature", "principal": "ZIPPORIAH MILLS"}, {"name": "P.S. 262 EL HAJJ MALIK EL SHABAZZ ELEMENTARY SCHOO", "geometry": {"type": "Point", "coordinates": ["-73.9303635", "40.6830648"]}, "address": "500 macon street, NY, 11233", "borough": "Brooklyn", "type": "Feature", "principal": "JOELETHA FERGUSON"}, {"name": "DR. SUSAN S. MCKINNEY SECONDARY SCHOOL OF THE ARTS", "geometry": {"type": "Point", "coordinates": ["-73.975936", "40.696351"]}, "address": "101 park avenue, NY, 11205", "borough": "Brooklyn", "type": "Feature", "principal": "PAULA HOLMES"}, {"name": "M.S. K266 - PARK PLACE COMMUNITY MIDDLE SCHOOL", "geometry": {"type": "Point", "coordinates": ["-73.9765347", "40.6789117"]}, "address": "62 park place, NY, 11217", "borough": "Brooklyn", "type": "Feature", "principal": "MICHELE ROBINSON"}, {"name": "M.S. 267 MATH, SCIENCE & TECHNOLOGY", "geometry": {"type": "Point", "coordinates": ["-73.9324469", "40.6882094"]}, "address": "800 gates avenue, NY, 11221", "borough": "Brooklyn", "type": "Feature", "principal": "PATRICIA KING"}, {"name": "P.S. 268 EMMA LAZARUS", "geometry": {"type": "Point", "coordinates": ["-73.9279985", "40.6569262"]}, "address": "133 east  53 street, NY, 11203", "borough": "Brooklyn", "type": "Feature", "principal": "Vangela Kirton"}, {"name": "P.S. 269 NOSTRAND", "geometry": {"type": "Point", "coordinates": ["-73.947676", "40.637666"]}, "address": "1957 nostrand avenue, NY, 11210", "borough": "Brooklyn", "type": "Feature", "principal": "PHYLLIS CORBIN"}, {"name": "P.S. 270 JOHANN DEKALB", "geometry": {"type": "Point", "coordinates": ["-73.9614047", "40.6901113"]}, "address": "241 emerson place, NY, 11205", "borough": "Brooklyn", "type": "Feature", "principal": "MITRA LUTCHMAN"}, {"name": "P.S. 272 CURTIS ESTABROOK", "geometry": {"type": "Point", "coordinates": ["-73.8862979", "40.6356944"]}, "address": "101-24 seaview avenue, NY, 11236", "borough": "Brooklyn", "type": "Feature", "principal": "DAKOTA KEYES"}, {"name": "P.S. 273 WORTMAN", "geometry": {"type": "Point", "coordinates": ["-73.879289", "40.6578673"]}, "address": "923 jerome street, NY, 11207", "borough": "Brooklyn", "type": "Feature", "principal": "MELESSA AVERY"}, {"name": "P.S. 274 KOSCIUSKO", "geometry": {"type": "Point", "coordinates": ["-73.9279783", "40.694456"]}, "address": "800 bushwick avenue, NY, 11221", "borough": "Brooklyn", "type": "Feature", "principal": "Maritza Ollivierra-Jones"}, {"name": "P.S. 276 LOUIS MARSHALL", "geometry": {"type": "Point", "coordinates": ["-73.907906", "40.6338781"]}, "address": "1070 east  83 street, NY, 11236", "borough": "Brooklyn", "type": "Feature", "principal": "Yasmine Fidelia"}, {"name": "P.S. 277 GERRITSEN BEACH", "geometry": {"type": "Point", "coordinates": ["-73.927935", "40.595958"]}, "address": "2529 gerritsen avenue, NY, 11229", "borough": "Brooklyn", "type": "Feature", "principal": "Jeanne M. Fish"}, {"name": "J.H.S. 278 MARINE PARK", "geometry": {"type": "Point", "coordinates": ["-73.9395784", "40.6069992"]}, "address": "1925 stuart street, NY, 11229", "borough": "Brooklyn", "type": "Feature", "principal": "DEBRA GAROFALO"}, {"name": "P.S. 279 HERMAN SCHREIBER", "geometry": {"type": "Point", "coordinates": ["-73.8922891", "40.644213"]}, "address": "1070 east 104 street, NY, 11236", "borough": "Brooklyn", "type": "Feature", "principal": "LORENZO CHAMBERS"}, {"name": "I.S. 281 JOSEPH B CAVALLARO", "geometry": {"type": "Point", "coordinates": ["-73.9941071", "40.5944748"]}, "address": "8787 24 avenue, NY, 11214", "borough": "Brooklyn", "type": "Feature", "principal": "STEPHEN ROSENBLUM"}, {"name": "P.S. 282 PARK SLOPE", "geometry": {"type": "Point", "coordinates": ["-73.9774327", "40.6762894"]}, "address": "180 6 avenue, NY, 11217", "borough": "Brooklyn", "type": "Feature", "principal": "MAGALIE ALEXIS"}, {"name": "P.S. 284 LEW WALLACE", "geometry": {"type": "Point", "coordinates": ["-73.9077983", "40.6670574"]}, "address": "213 osborn street, NY, 11212", "borough": "Brooklyn", "type": "Feature", "principal": "SHENEAN LINDSAY"}, {"name": "I.S. 285 MEYER LEVIN", "geometry": {"type": "Point", "coordinates": ["-73.920543", "40.647124"]}, "address": "5909 beverly road, NY, 11203", "borough": "Brooklyn", "type": "Feature", "principal": "Mr. Frederick A. Underwood"}, {"name": "P.S. 287 BAILEY K. ASHFORD", "geometry": {"type": "Point", "coordinates": ["-73.9809627", "40.6981701"]}, "address": "50 navy street, NY, 11201", "borough": "Brooklyn", "type": "Feature", "principal": "Ms. Michele Rawlins"}, {"name": "P.S. 288 THE SHIRLEY TANYHILL", "geometry": {"type": "Point", "coordinates": ["-73.9921247", "40.5743917"]}, "address": "2950 west  25 street, NY, 11224", "borough": "Brooklyn", "type": "Feature", "principal": "Joelene-Lynette Kinard"}, {"name": "P.S. 289 GEORGE V. BROWER", "geometry": {"type": "Point", "coordinates": ["-73.942428", "40.67424"]}, "address": "900 st marks avenue, NY, 11213", "borough": "Brooklyn", "type": "Feature", "principal": "Mr. Dennis O. Jeffers"}, {"name": "P.S. 290 JUAN MOREL CAMPOS", "geometry": {"type": "Point", "coordinates": ["-73.8897629", "40.6779316"]}, "address": "135 schenck avenue, NY, 11207", "borough": "Brooklyn", "type": "Feature", "principal": "WILLENA GEORGE"}, {"name": "J.H.S. 291 ROLAND HAYES", "geometry": {"type": "Point", "coordinates": ["-73.9150246", "40.6954869"]}, "address": "231 palmetto street, NY, 11221", "borough": "Brooklyn", "type": "Feature", "principal": "SEAN WALSH"}, {"name": "J.H.S. 292 MARGARET S. DOUGLAS", "geometry": {"type": "Point", "coordinates": ["-73.893453", "40.671887"]}, "address": "301 vermont street, NY, 11207", "borough": "Brooklyn", "type": "Feature", "principal": "EVERETT HUGHES"}, {"name": "P.S. 295", "geometry": {"type": "Point", "coordinates": ["-73.9890301", "40.6614113"]}, "address": "330 18 street, NY, 11215", "borough": "Brooklyn", "type": "Feature", "principal": "DEANNA MARCO"}, {"name": "J.H.S. 296 THE HALSEY", "geometry": {"type": "Point", "coordinates": ["-73.9099954", "40.6888214"]}, "address": "125 covert street, NY, 11207", "borough": "Brooklyn", "type": "Feature", "principal": "Maria Barreto"}, {"name": "P.S. 297 ABRAHAM STOCKTON", "geometry": {"type": "Point", "coordinates": ["-73.947625", "40.697809"]}, "address": "700 park avenue, NY, 11206", "borough": "Brooklyn", "type": "Feature", "principal": "JAMES BROWN"}, {"name": "P.S. 298 DR. BETTY SHABAZZ", "geometry": {"type": "Point", "coordinates": ["-73.907738", "40.671004"]}, "address": "85 watkins street, NY, 11212", "borough": "Brooklyn", "type": "Feature", "principal": "ANTOINETTE MARTIN"}, {"name": "P.S. 299 THOMAS WARREN FIELD", "geometry": {"type": "Point", "coordinates": ["-73.9179201", "40.6912996"]}, "address": "88 woodbine street, NY, 11221", "borough": "Brooklyn", "type": "Feature", "principal": "WILMA KANOVA KIRK"}, {"name": "SATELLITE EAST MIDDLE SCHOOL", "geometry": {"type": "Point", "coordinates": ["-73.9448062", "40.6861198"]}, "address": "344 monroe street, NY, 11216", "borough": "Brooklyn", "type": "Feature", "principal": "KIM MCPHERSON"}, {"name": "J.H.S. 302 RAFAEL CORDERO", "geometry": {"type": "Point", "coordinates": ["-73.8834076", "40.6770363"]}, "address": "350 linwood street, NY, 11208", "borough": "Brooklyn", "type": "Feature", "principal": "LISA LINDER"}, {"name": "I.S. 303 HERBERT S. EISENBERG", "geometry": {"type": "Point", "coordinates": ["-73.9731606", "40.5824516"]}, "address": "501 west avenue, NY, 11224", "borough": "Brooklyn", "type": "Feature", "principal": "Mr. Gary Ingrassia"}, {"name": "P.S. 305 DR. PETER RAY", "geometry": {"type": "Point", "coordinates": ["-73.9448062", "40.6861198"]}, "address": "344 monroe street, NY, 11216", "borough": "Brooklyn", "type": "Feature", "principal": "Dr. Julia Mortley"}, {"name": "P.S. 306 ETHAN ALLEN", "geometry": {"type": "Point", "coordinates": ["-73.886104", "40.655395"]}, "address": "970 vermont street, NY, 11207", "borough": "Brooklyn", "type": "Feature", "principal": "LAWRENCE BURROUGHS"}, {"name": "P.S. 307 DANIEL HALE WILLIAMS", "geometry": {"type": "Point", "coordinates": ["-73.9814184", "40.7014172"]}, "address": "209 york street, NY, 11201", "borough": "Brooklyn", "type": "Feature", "principal": "ROBERTA DAVENPORT"}, {"name": "P.S. 308 CLARA CARDWELL", "geometry": {"type": "Point", "coordinates": ["-73.9359323", "40.6884755"]}, "address": "616 quincy street, NY, 11221", "borough": "Brooklyn", "type": "Feature", "principal": "RENATA CLEMENT"}, {"name": "P.S. 309 GEORGE E. WIBECAN", "geometry": {"type": "Point", "coordinates": ["-73.9240519", "40.6885023"]}, "address": "794 monroe street, NY, 11221", "borough": "Brooklyn", "type": "Feature", "principal": "EMILY ZUCAL"}, {"name": "ESSENCE SCHOOL", "geometry": {"type": "Point", "coordinates": ["-73.8944572", "40.6623466"]}, "address": "590 sheffield avenue, NY, 11207", "borough": "Brooklyn", "type": "Feature", "principal": "CLAUDY MAKELELE"}, {"name": "P.S. 312 BERGEN BEACH", "geometry": {"type": "Point", "coordinates": ["-73.9086769", "40.6216163"]}, "address": "7103 avenue t, NY, 11234", "borough": "Brooklyn", "type": "Feature", "principal": "LINDA BEAL BENIGNO"}, {"name": "SATELLITE WEST MIDDLE SCHOOL", "geometry": {"type": "Point", "coordinates": ["-73.9814184", "40.7014172"]}, "address": "209 york street, NY, 11201", "borough": "Brooklyn", "type": "Feature", "principal": "SUZANE JOSEPH"}, {"name": "P.S. K315", "geometry": {"type": "Point", "coordinates": ["-73.954263", "40.632619"]}, "address": "2310 glenwood road, NY, 11210", "borough": "Brooklyn", "type": "Feature", "principal": "Judith Ranft"}, {"name": "P.S. 316 ELIJAH STROUD", "geometry": {"type": "Point", "coordinates": ["-73.9603013", "40.6742826"]}, "address": "750 classon avenue, NY, 11238", "borough": "Brooklyn", "type": "Feature", "principal": "ELIF GURE"}, {"name": "I.S. 318 EUGENIO MARIA DE HOSTOS", "geometry": {"type": "Point", "coordinates": ["-73.94825", "40.7030321"]}, "address": "101 walton street, NY, 11206", "borough": "Brooklyn", "type": "Feature", "principal": "FORTUNATO RUBINO"}, {"name": "P.S. 319", "geometry": {"type": "Point", "coordinates": ["-73.9542428", "40.7096213"]}, "address": "360 keap street, NY, 11211", "borough": "Brooklyn", "type": "Feature", "principal": "ALEYDA ZAMORA MARTINEZ"}, {"name": "P.S. 321 WILLIAM PENN", "geometry": {"type": "Point", "coordinates": ["-73.9779245", "40.6713197"]}, "address": "180 7 avenue, NY, 11215", "borough": "Brooklyn", "type": "Feature", "principal": "ELIZABETH PHILLIPS"}, {"name": "FOUNDATIONS ACADEMY", "geometry": {"type": "Point", "coordinates": ["-73.9466607", "40.697127"]}, "address": "70 tompkins avenue, NY, 11206", "borough": "Brooklyn", "type": "Feature", "principal": "Gary Beidleman"}, {"name": "P.S./I.S. 323", "geometry": {"type": "Point", "coordinates": ["-73.911268", "40.6661829"]}, "address": "210 chester street, NY, 11212", "borough": "Brooklyn", "type": "Feature", "principal": "LINDA HARRIS"}, {"name": "P.S. 326", "geometry": {"type": "Point", "coordinates": ["-73.9280737", "40.6283066"]}, "address": "1800 utica avenue, NY, 11234", "borough": "Brooklyn", "type": "Feature", "principal": "Colleen M. Ducey"}, {"name": "P.S. 327 DR. ROSE B. ENGLISH", "geometry": {"type": "Point", "coordinates": ["-73.9124411", "40.6687773"]}, "address": "111 bristol street, NY, 11212", "borough": "Brooklyn", "type": "Feature", "principal": "STEPHEN APPEA"}, {"name": "P.S. 328 PHYLLIS WHEATLEY", "geometry": {"type": "Point", "coordinates": ["-73.8978686", "40.6678282"]}, "address": "330 alabama avenue, NY, 11207", "borough": "Brooklyn", "type": "Feature", "principal": "DOUGLAS AVILA"}, {"name": "P.S. 329 SURFSIDE", "geometry": {"type": "Point", "coordinates": ["-73.9962757", "40.5745976"]}, "address": "2929 west  30 street, NY, 11224", "borough": "Brooklyn", "type": "Feature", "principal": "SALEMA MARBURY"}, {"name": "URBAN ASSEMBLY SCHOOL FOR THE URBAN ENVIRONMENT", "geometry": {"type": "Point", "coordinates": ["-73.9466607", "40.697127"]}, "address": "70 tompkins avenue, NY, 11206", "borough": "Brooklyn", "type": "Feature", "principal": "KOURTNEY BOYD"}, {"name": "P.S. 332 CHARLES H. HOUSTON", "geometry": {"type": "Point", "coordinates": ["-73.9065614", "40.6725283"]}, "address": "51 christopher avenue, NY, 11212", "borough": "Brooklyn", "type": "Feature", "principal": "Mickisha Goss"}, {"name": "MIDDLE SCHOOL FOR ACADEMIC AND SOCIAL EXCELLENCE", "geometry": {"type": "Point", "coordinates": ["-73.9368714", "40.6726919"]}, "address": "1224 park place, NY, 11213", "borough": "Brooklyn", "type": "Feature", "principal": "Andrea Whitehurst"}, {"name": "P.S. 335 GRANVILLE T. WOODS", "geometry": {"type": "Point", "coordinates": ["-73.92785", "40.674051"]}, "address": "130 rochester avenue, NY, 11213", "borough": "Brooklyn", "type": "Feature", "principal": "DR. LAVERNE NIMMONS"}, {"name": "ACADEMY OF BUSINESS AND COMMUNITY DEVELOPMENT", "geometry": {"type": "Point", "coordinates": ["-73.9455062", "40.6818521"]}, "address": "141 macon street, NY, 11216", "borough": "Brooklyn", "type": "Feature", "principal": "Simone A. McIntosh"}, {"name": "I.S. 340", "geometry": {"type": "Point", "coordinates": ["-73.9695412", "40.6759296"]}, "address": "227 sterling place, NY, 11238", "borough": "Brooklyn", "type": "Feature", "principal": "Mrs. Jean Williams"}, {"name": "RACHEL CARSON HIGH SCHOOL FOR COASTAL STUDIES", "geometry": {"type": "Point", "coordinates": ["-73.9731615", "40.5824541"]}, "address": "521 west avenue, NY, 11224", "borough": "Brooklyn", "type": "Feature", "principal": "EDWARD WILENSKY"}, {"name": "P.S. 345 PATROLMAN ROBERT BOLDEN", "geometry": {"type": "Point", "coordinates": ["-73.8803287", "40.676124"]}, "address": "111 berriman street, NY, 11208", "borough": "Brooklyn", "type": "Feature", "principal": "WANDA HOLT"}, {"name": "P.S. 346 ABE STARK", "geometry": {"type": "Point", "coordinates": ["-73.881661", "40.6468388"]}, "address": "1400 pennsylvania avenue, NY, 11239", "borough": "Brooklyn", "type": "Feature", "principal": "KEVIN CAIFA"}, {"name": "I.S. 347 SCHOOL OF HUMANITIES", "geometry": {"type": "Point", "coordinates": ["-73.9272863", "40.7009004"]}, "address": "35 starr street, NY, 11221", "borough": "Brooklyn", "type": "Feature", "principal": "JOHN BARBELLA"}, {"name": "HIGH SCHOOL OF SPORTS MANAGEMENT", "geometry": {"type": "Point", "coordinates": ["-73.985345", "40.593996"]}, "address": "2630 benson avenue, NY, 11214", "borough": "Brooklyn", "type": "Feature", "principal": "ROBIN PITTS"}, {"name": "I.S. 349 MATH, SCIENCE & TECH.", "geometry": {"type": "Point", "coordinates": ["-73.9272863", "40.7009004"]}, "address": "35 starr street, NY, 11221", "borough": "Brooklyn", "type": "Feature", "principal": "ROGELIO PARRIS"}, {"name": "URBAN ASSEMBLY SCHOOL OF MUSIC AND ART, THE", "geometry": {"type": "Point", "coordinates": ["-73.9847533", "40.6972049"]}, "address": "49 flatbush avenue extension, NY, 11201", "borough": "Brooklyn", "type": "Feature", "principal": "PAUL THOMPSON"}, {"name": "EBBETS FIELD MIDDLE SCHOOL", "geometry": {"type": "Point", "coordinates": ["-73.9590369", "40.6650015"]}, "address": "46 mckeever place, NY, 11225", "borough": "Brooklyn", "type": "Feature", "principal": "Margie Baker"}, {"name": "ELIJAH STROUD MIDDLE SCHOOL", "geometry": {"type": "Point", "coordinates": ["-73.9603013", "40.6742826"]}, "address": "750 classon avenue, NY, 11238", "borough": "Brooklyn", "type": "Feature", "principal": "CLAUDETTE ESSOR"}, {"name": "THE SCHOOL OF INTEGRATED LEARNING", "geometry": {"type": "Point", "coordinates": ["-73.9368714", "40.6726919"]}, "address": "1224 park place, NY, 11213", "borough": "Brooklyn", "type": "Feature", "principal": "MONIQUE CAMPBELL"}, {"name": "WILLIAMSBURG COLLEGIATE CHARTER SCHOOL", "geometry": {"type": "Point", "coordinates": ["-73.962002", "40.7058422"]}, "address": "157 wilson street, NY, 11211", "borough": "Brooklyn", "type": "Feature", "principal": "J.T. Leaird"}, {"name": "ACHIEVEMENT FIRST- CROWN HEIGHTS CHARTER SCHOOL", "geometry": {"type": "Point", "coordinates": ["-73.9371169", "40.6622194"]}, "address": "790 east new york avenue, NY, 11203", "borough": "Brooklyn", "type": "Feature", "principal": "Camilla Lopez/Wells Blanch*"}, {"name": "KIPP AMP (ALWAYS MENTALLY PREPARED) CHARTER SCHOOL", "geometry": {"type": "Point", "coordinates": ["-73.9368714", "40.6726919"]}, "address": "1224 park place, NY, 11213", "borough": "Brooklyn", "type": "Feature", "principal": "Ky Adderley/Natalie Webb"}, {"name": "ACHIEVEMENT FIRST EAST NEW YORK SCHOOL", "geometry": {"type": "Point", "coordinates": ["-73.8937024", "40.6635217"]}, "address": "557 pennsylvania avenue, NY, 11207", "borough": "Brooklyn", "type": "Feature", "principal": "Hilary Cymrot/David Hardy"}, {"name": "THE UFT CHARTER SCHOOL", "geometry": {"type": "Point", "coordinates": ["-73.892852", "40.6714902"]}, "address": "300 wyona street, NY, 11207", "borough": "Brooklyn", "type": "Feature", "principal": "Michelle Bodden-White"}, {"name": "P.S. 361", "geometry": {"type": "Point", "coordinates": ["-73.9470094", "40.6402338"]}, "address": "3109 newkirk avenue, NY, 11226", "borough": "Brooklyn", "type": "Feature", "principal": "Dianne S. Martin"}, {"name": "HELLENIC CLASSICAL CHARTER SCHOOL", "geometry": {"type": "Point", "coordinates": ["-73.992101", "40.6628198"]}, "address": "646 fifth avenue, NY, 11215", "borough": "Brooklyn", "type": "Feature", "principal": "Christina Tettonis"}, {"name": "I.S. 364 GATEWAY", "geometry": {"type": "Point", "coordinates": ["-73.8811318", "40.6464708"]}, "address": "1426 freeport loop, NY, 11239", "borough": "Brooklyn", "type": "Feature", "principal": "DALE KELLY"}, {"name": "P.S. 368", "geometry": {"type": "Point", "coordinates": ["-73.9466607", "40.697127"]}, "address": "70 tompkins avenue, NY, 11206", "borough": "Brooklyn", "type": "Feature", "principal": "JOYCELYN NEDD"}, {"name": "P.S. K369  - COY L. COX SCHOOL", "geometry": {"type": "Point", "coordinates": ["-73.9835616", "40.6873496"]}, "address": "383 state street, NY, 11217", "borough": "Brooklyn", "type": "Feature", "principal": "RUDY GIULIANI"}, {"name": "P.S. 370", "geometry": {"type": "Point", "coordinates": ["-73.969865", "40.577675"]}, "address": "3000 west 1 street, NY, 11224", "borough": "Brooklyn", "type": "Feature", "principal": "SUSAN GOLDBERG"}, {"name": "P.S. 371 - LILLIAN L. RASHKIS", "geometry": {"type": "Point", "coordinates": ["-74.0056818", "40.6541761"]}, "address": "355 37 street, NY, 11232", "borough": "Brooklyn", "type": "Feature", "principal": "Joan Antonelli"}, {"name": "P.S. 372 -THE CHILDREN'S SCHOOL", "geometry": {"type": "Point", "coordinates": ["-73.985525", "40.676166"]}, "address": "512 carroll street, NY, 11215", "borough": "Brooklyn", "type": "Feature", "principal": "ARTHUR MATTIA"}, {"name": "P.S. 373 - BROOKLYN TRANSITION CENTER", "geometry": {"type": "Point", "coordinates": ["-73.9451827", "40.6988578"]}, "address": "185 ellery street, NY, 11206", "borough": "Brooklyn", "type": "Feature", "principal": "VALERIE MILLER"}, {"name": "P.S. 375 JACKIE-ROBINSON SCHOOL", "geometry": {"type": "Point", "coordinates": ["-73.9590369", "40.6650015"]}, "address": "46 mckeever place, NY, 11225", "borough": "Brooklyn", "type": "Feature", "principal": "Ms. Marion Wilson"}, {"name": "P.S. 376", "geometry": {"type": "Point", "coordinates": ["-73.920028", "40.697828"]}, "address": "194 harman street, NY, 11237", "borough": "Brooklyn", "type": "Feature", "principal": "Maria Vera"}, {"name": "P.S. 377 ALEJANDRINA B. DE GAUTIER", "geometry": {"type": "Point", "coordinates": ["-73.9151166", "40.6939437"]}, "address": "200 woodbine street, NY, 11221", "borough": "Brooklyn", "type": "Feature", "principal": "DOMINIC ZAGAMI"}, {"name": "P.S. 380 JOHN WAYNE ELEMENTARY", "geometry": {"type": "Point", "coordinates": ["-73.95369", "40.701771"]}, "address": "370 marcy avenue, NY, 11206", "borough": "Brooklyn", "type": "Feature", "principal": "Diane Vitolo"}, {"name": "I. S. 381", "geometry": {"type": "Point", "coordinates": ["-73.9516203", "40.6111184"]}, "address": "1599 east  22 street, NY, 11210", "borough": "Brooklyn", "type": "Feature", "principal": "MARY HARRINGTON"}, {"name": "ACADEMY FOR COLLEGE PREPARATION AND CAREER EXPLORATION", "geometry": {"type": "Point", "coordinates": ["-73.9585008", "40.6495418"]}, "address": "911 flatbush avenue, NY, 11226", "borough": "Brooklyn", "type": "Feature", "principal": "Doris Unger"}, {"name": "J.H.S. 383 PHILLIPPA SCHUYLER", "geometry": {"type": "Point", "coordinates": ["-73.9198843", "40.6976416"]}, "address": "1300 greene avenue, NY, 11237", "borough": "Brooklyn", "type": "Feature", "principal": "BARBARA SANDERS"}, {"name": "P.S. /I.S. 384 FRANCES E. CARTER", "geometry": {"type": "Point", "coordinates": ["-73.9049117", "40.6900659"]}, "address": "242 cooper street, NY, 11207", "borough": "Brooklyn", "type": "Feature", "principal": "BRUNHILDA PEREZ"}, {"name": "SCHOOL OF BUSINESS, FINANCE AND ENTREPRENEURSHIP", "geometry": {"type": "Point", "coordinates": ["-73.9335469", "40.6911768"]}, "address": "125 stuyvesant avenue, NY, 11221", "borough": "Brooklyn", "type": "Feature", "principal": "GLYN MARRYSHOW"}, {"name": "I.S. 392", "geometry": {"type": "Point", "coordinates": ["-73.9181332", "40.6659512"]}, "address": "104 sutter avenue, NY, 11212", "borough": "Brooklyn", "type": "Feature", "principal": "Shirley Wheeler"}, {"name": "FREDERICK DOUGLASS ACADEMY IV SECONDARY SCHOOL", "geometry": {"type": "Point", "coordinates": ["-73.9316656", "40.6921294"]}, "address": "1010 lafayette avenue, NY, 11221", "borough": "Brooklyn", "type": "Feature", "principal": "Elvin Crespo"}, {"name": "M.S. K394", "geometry": {"type": "Point", "coordinates": ["-73.9289299", "40.672706"]}, "address": "188 rochester avenue, NY, 11213", "borough": "Brooklyn", "type": "Feature", "principal": "Ms. Claudette Murray"}, {"name": "P.S. K396", "geometry": {"type": "Point", "coordinates": ["-73.9115365", "40.6689792"]}, "address": "110 chester street, NY, 11212", "borough": "Brooklyn", "type": "Feature", "principal": "Nira Schwartz-Nyitray"}, {"name": "P.S. 397 FOSTER-LAURIE", "geometry": {"type": "Point", "coordinates": ["-73.946372", "40.658658"]}, "address": "490 fenimore street, NY, 11203", "borough": "Brooklyn", "type": "Feature", "principal": "NANCY COLON"}, {"name": "P.S. 398 WALTER WEAVER", "geometry": {"type": "Point", "coordinates": ["-73.9278822", "40.6643753"]}, "address": "60 east  94 street, NY, 11212", "borough": "Brooklyn", "type": "Feature", "principal": "Diane Danay-Caban"}, {"name": "P.S. 399 STANLEY EUGENE CLARK", "geometry": {"type": "Point", "coordinates": ["-73.951541", "40.6480464"]}, "address": "2707 albermarle road, NY, 11226", "borough": "Brooklyn", "type": "Feature", "principal": "Marion J. Brown"}, {"name": "ACADEMY FOR ENVIRONMENTAL LEADERSHIP", "geometry": {"type": "Point", "coordinates": ["-73.9123276", "40.6971821"]}, "address": "400 irving avenue, NY, 11237", "borough": "Brooklyn", "type": "Feature", "principal": "Nilda Gomez-Katz"}, {"name": "ACADEMY FOR YOUNG WRITERS", "geometry": {"type": "Point", "coordinates": ["-73.9598969", "40.7115698"]}, "address": "183 south  3 street, NY, 11211", "borough": "Brooklyn", "type": "Feature", "principal": "Courtney Winkfield"}, {"name": "MIDWOOD HIGH SCHOOL", "geometry": {"type": "Point", "coordinates": ["-73.952536", "40.632889"]}, "address": "2839 bedford avenue, NY, 11210", "borough": "Brooklyn", "type": "Feature", "principal": "DAVID COHEN"}, {"name": "ACADEMY OF  HOSPITALITY AND TOURISM", "geometry": {"type": "Point", "coordinates": ["-73.9585008", "40.6495418"]}, "address": "911 flatbush avenue, NY, 11226", "borough": "Brooklyn", "type": "Feature", "principal": "ADAM BREIER"}, {"name": "EAST NEW YORK FAMILY ACADEMY", "geometry": {"type": "Point", "coordinates": ["-73.8864956", "40.6612205"]}, "address": "2057 linden boulevard, NY, 11207", "borough": "Brooklyn", "type": "Feature", "principal": "SHEILA RICHARDS"}, {"name": "ABRAHAM LINCOLN HIGH SCHOOL", "geometry": {"type": "Point", "coordinates": ["-73.968723", "40.58261"]}, "address": "2800 ocean parkway, NY, 11235", "borough": "Brooklyn", "type": "Feature", "principal": "Ari Hoogenboom"}, {"name": "BROOKLYN COMMUNITY HIGH SCHOOL OF COMMUNICATION, A", "geometry": {"type": "Point", "coordinates": ["-73.9589515", "40.6926189"]}, "address": "300 willoughby avenue, NY, 11205", "borough": "Brooklyn", "type": "Feature", "principal": "James O'Brien"}, {"name": "SCIENCE SKILLS CENTER HIGH SCHOOL FOR SCIENCE, TEC", "geometry": {"type": "Point", "coordinates": ["-73.9847533", "40.6972049"]}, "address": "49 flatbush avenue extension, NY, 11201", "borough": "Brooklyn", "type": "Feature", "principal": "JUDY HENRY"}, {"name": "FRANKLIN K. LANE HIGH SCHOOL", "geometry": {"type": "Point", "coordinates": ["-73.868927", "40.69228"]}, "address": "999 jamaica avenue, NY, 11208", "borough": "Brooklyn", "type": "Feature", "principal": "MARLON BYNUM"}, {"name": "JAMES MADISON HIGH SCHOOL", "geometry": {"type": "Point", "coordinates": ["-73.9482084", "40.6098455"]}, "address": "3787 bedford avenue, NY, 11229", "borough": "Brooklyn", "type": "Feature", "principal": "Joseph A. Gogliormella"}, {"name": "BROOKLYN SCHOOL FOR GLOBAL STUDIES", "geometry": {"type": "Point", "coordinates": ["-73.9934436", "40.6854485"]}, "address": "284 baltic street, NY, 11201", "borough": "Brooklyn", "type": "Feature", "principal": "Joseph O'Brien"}, {"name": "BROOKLYN TECHNICAL HIGH SCHOOL", "geometry": {"type": "Point", "coordinates": ["-73.976438", "40.688872"]}, "address": "29 ft greene place, NY, 11217", "borough": "Brooklyn", "type": "Feature", "principal": "RANDY ASHER"}, {"name": "BROOKLYN INTERNATIONAL HIGH SCHOOL", "geometry": {"type": "Point", "coordinates": ["-73.9847533", "40.6972049"]}, "address": "49 flatbush avenue extension, NY, 11201", "borough": "Brooklyn", "type": "Feature", "principal": "PAMELA TARANTO"}, {"name": "NEW HORIZONS SCHOOL", "geometry": {"type": "Point", "coordinates": ["-73.9918835", "40.6804343"]}, "address": "317 hoyt street, NY, 11231", "borough": "Brooklyn", "type": "Feature", "principal": "DEANNA SINITO"}, {"name": "NEW VOICES SCHOOL OF ACADEMIC & CREATIVE ARTS", "geometry": {"type": "Point", "coordinates": ["-73.9890301", "40.6614113"]}, "address": "330 18 street, NY, 11215", "borough": "Brooklyn", "type": "Feature", "principal": "FRANK GIORDANO"}, {"name": "NEW UTRECHT HIGH SCHOOL", "geometry": {"type": "Point", "coordinates": ["-74.0037419", "40.6134712"]}, "address": "1601 80 street, NY, 11214", "borough": "Brooklyn", "type": "Feature", "principal": "MAUREEN GOLDFARB"}, {"name": "THE MATH & SCIENCE EXPLORATORY SCHOOL", "geometry": {"type": "Point", "coordinates": ["-73.9803616", "40.6838317"]}, "address": "345 dean street, NY, 11217", "borough": "Brooklyn", "type": "Feature", "principal": "Lisa Gioe"}, {"name": "BROOKLYN SECONDARY SCHOOL FOR COLLABORATIVE  STUDI", "geometry": {"type": "Point", "coordinates": ["-74.002027", "40.679453"]}, "address": "610 henry street, NY, 11231", "borough": "Brooklyn", "type": "Feature", "principal": "ALYCE BARR"}, {"name": "BROOKLYN LATIN SCHOOL, THE", "geometry": {"type": "Point", "coordinates": ["-73.9395468", "40.7046373"]}, "address": "325 bushwick avenue, NY, 11206", "borough": "Brooklyn", "type": "Feature", "principal": "JASON GRIFFITHS"}, {"name": "FREDERICK DOUGLASS ACADEMY VIII MIDDLE SCHOOL", "geometry": {"type": "Point", "coordinates": ["-73.881661", "40.6468388"]}, "address": "1400 pennsylvania avenue, NY, 11239", "borough": "Brooklyn", "type": "Feature", "principal": "YOLANDA MARTIN"}, {"name": "GREEN SCHOOL: AN ACADEMY FOR ENVIRONMENTAL CAREERS", "geometry": {"type": "Point", "coordinates": ["-73.943723", "40.710353"]}, "address": "223 graham avenue, NY, 11206", "borough": "Brooklyn", "type": "Feature", "principal": "Karali Pitzele"}, {"name": "BOYS AND GIRLS HIGH SCHOOL", "geometry": {"type": "Point", "coordinates": ["-73.9315979", "40.678472"]}, "address": "1700 fulton street, NY, 11213", "borough": "Brooklyn", "type": "Feature", "principal": "BERNARD GASSAWAY"}, {"name": "SECONDARY SCHOOL FOR LAW", "geometry": {"type": "Point", "coordinates": ["-73.9791407", "40.6695121"]}, "address": "237 7 avenue, NY, 11215", "borough": "Brooklyn", "type": "Feature", "principal": "Oneatha Swinton"}, {"name": "SECONDARY SCHOOL FOR JOURNALISM", "geometry": {"type": "Point", "coordinates": ["-73.9791407", "40.6695121"]}, "address": "237 7 avenue, NY, 11215", "borough": "Brooklyn", "type": "Feature", "principal": "ABBIE REIF"}, {"name": "Park Slope Collegiate", "geometry": {"type": "Point", "coordinates": ["-73.9791407", "40.6695121"]}, "address": "237 7 avenue, NY, 11215", "borough": "Brooklyn", "type": "Feature", "principal": "JILL BLOOMBERG"}, {"name": "KINGSBOROUGH EARLY COLLEGE SCHOOL", "geometry": {"type": "Point", "coordinates": ["-73.985345", "40.593996"]}, "address": "2630 benson avenue, NY, 11214", "borough": "Brooklyn", "type": "Feature", "principal": "CONNIE HAMILTON"}, {"name": "WILLIAMSBURG CHARTER HIGH SCHOOL", "geometry": {"type": "Point", "coordinates": ["-73.9358369", "40.7036556"]}, "address": "198 varet street, NY, 11206", "borough": "Brooklyn", "type": "Feature", "principal": "Marsha Spampinato"}, {"name": "PROGRESS HIGH SCHOOL FOR PROFESSIONAL CAREERS", "geometry": {"type": "Point", "coordinates": ["-73.939351", "40.712028"]}, "address": "850 grand street, NY, 11211", "borough": "Brooklyn", "type": "Feature", "principal": "WILLIAM JUSINO"}, {"name": "SCHOOL FOR LEGAL STUDIES", "geometry": {"type": "Point", "coordinates": ["-73.939351", "40.712028"]}, "address": "850 grand street, NY, 11211", "borough": "Brooklyn", "type": "Feature", "principal": "MONICA ORTIZ"}, {"name": "ENTERPRISE, BUSINESS AND  TECHNOLOGY HIGH SCHOOL", "geometry": {"type": "Point", "coordinates": ["-73.939351", "40.712028"]}, "address": "850 grand street, NY, 11211", "borough": "Brooklyn", "type": "Feature", "principal": "Holger Carrillo"}, {"name": "URBAN ASSEMBLY SCHOOL FOR LAW AND JUSTICE, THE", "geometry": {"type": "Point", "coordinates": ["-73.9883234", "40.6946578"]}, "address": "283 adams street, NY, 11201", "borough": "Brooklyn", "type": "Feature", "principal": "SHANNON CURRAN"}, {"name": "RONALD EDMONDS LEARNING CENTER II", "geometry": {"type": "Point", "coordinates": ["-73.9196269", "40.6730528"]}, "address": "430 howard avenue, NY, 11233", "borough": "Brooklyn", "type": "Feature", "principal": "HERBERT DAUGHTRY"}, {"name": "HIGH SCHOOL OF  TELECOMMUNICATION ARTS AND TECHNOL", "geometry": {"type": "Point", "coordinates": ["-74.023612", "40.6371816"]}, "address": "350 67 street, NY, 11220", "borough": "Brooklyn", "type": "Feature", "principal": "PHILIP WEINBERG"}, {"name": "BROOKLYN PREPARATORY HIGH SCHOOL", "geometry": {"type": "Point", "coordinates": ["-73.9544236", "40.7148755"]}, "address": "257 north  6 street, NY, 11211", "borough": "Brooklyn", "type": "Feature", "principal": "Noah Lansner"}, {"name": "W.E.B. DUBOIS ACADEMIC HIGH SCHOOL", "geometry": {"type": "Point", "coordinates": ["-73.9551177", "40.6700608"]}, "address": "402 eastern parkway, NY, 11225", "borough": "Brooklyn", "type": "Feature", "principal": "Catherine Hartnett"}, {"name": "FORT HAMILTON HIGH SCHOOL", "geometry": {"type": "Point", "coordinates": ["-74.038087", "40.626814"]}, "address": "8301 shore road, NY, 11209", "borough": "Brooklyn", "type": "Feature", "principal": "Jo Ann Chester"}, {"name": "URBAN ASSEMBLY ACADEMY OF ARTS AND LETTERS", "geometry": {"type": "Point", "coordinates": ["-73.9712643", "40.6909509"]}, "address": "225 adelphi street, NY, 11205", "borough": "Brooklyn", "type": "Feature", "principal": "Allison Gaines Pell"}, {"name": "BROOKLYN COLLEGIATE: A COLLEGE BOARD SCHOOL", "geometry": {"type": "Point", "coordinates": ["-73.9135801", "40.6741208"]}, "address": "2021 bergen street, NY, 11233", "borough": "Brooklyn", "type": "Feature", "principal": "AMOTE SIAS"}, {"name": "SHEEPSHEAD BAY HIGH SCHOOL", "geometry": {"type": "Point", "coordinates": ["-73.936638", "40.59314"]}, "address": "3000 avenue x, NY, 11235", "borough": "Brooklyn", "type": "Feature", "principal": "REESA LEVY"}, {"name": "SCHOOL FOR INTERNATIONAL STUDIES", "geometry": {"type": "Point", "coordinates": ["-73.9934436", "40.6854485"]}, "address": "284 baltic street, NY, 11201", "borough": "Brooklyn", "type": "Feature", "principal": "Fred Walsh"}, {"name": "BROOKLYN HIGH SCHOOL FOR LAW AND TECHNOLOGY", "geometry": {"type": "Point", "coordinates": ["-73.920614", "40.688391"]}, "address": "1396 broadway, NY, 11221", "borough": "Brooklyn", "type": "Feature", "principal": "Michael Prayor"}, {"name": "ACORN COMMUNITY HIGH SCHOOL", "geometry": {"type": "Point", "coordinates": ["-73.9619049", "40.6786142"]}, "address": "561 grand avenue, NY, 11238", "borough": "Brooklyn", "type": "Feature", "principal": "Andrea Piper"}, {"name": "FDNY HIGH SCHOOL FOR FIRE AND LIFE SAFETY", "geometry": {"type": "Point", "coordinates": ["-73.8947915", "40.6676012"]}, "address": "400 pennsylvania avenue, NY, 11207", "borough": "Brooklyn", "type": "Feature", "principal": "JAMES ANDERSON"}, {"name": "PS 503: THE SCHOOL OF DISCOVERY", "geometry": {"type": "Point", "coordinates": ["-74.019313", "40.641937"]}, "address": "330 59 street, NY, 11220", "borough": "Brooklyn", "type": "Feature", "principal": "BERNADETTE FITZGERALD"}, {"name": "HIGH SCHOOL FOR CIVIL RIGHTS", "geometry": {"type": "Point", "coordinates": ["-73.8947915", "40.6676012"]}, "address": "400 pennsylvania avenue, NY, 11207", "borough": "Brooklyn", "type": "Feature", "principal": "Michael S. Steele"}, {"name": "FRANKLIN DELANO ROOSEVELT HIGH SCHOOL", "geometry": {"type": "Point", "coordinates": ["-73.9814409", "40.62078"]}, "address": "5800 20 avenue, NY, 11204", "borough": "Brooklyn", "type": "Feature", "principal": "Steven Demarco"}, {"name": "P.S. 506: SCHOOL OF JOURNALISM & TECHNOLOGY", "geometry": {"type": "Point", "coordinates": ["-74.019313", "40.641937"]}, "address": "330 59 street, NY, 11220", "borough": "Brooklyn", "type": "Feature", "principal": "ELIZABETH WATERS"}, {"name": "PERFORMING ARTS AND TECHNOLOGY HIGH SCHOOL", "geometry": {"type": "Point", "coordinates": ["-73.8947915", "40.6676012"]}, "address": "400 pennsylvania avenue, NY, 11207", "borough": "Brooklyn", "type": "Feature", "principal": "Reginald Richardson"}, {"name": "ACHIEVEMENT FIRST ENDEAVOR CHARTER SCHOOL", "geometry": {"type": "Point", "coordinates": ["-73.965819", "40.682428"]}, "address": "510 waverly avenue, NY, 11238", "borough": "Brooklyn", "type": "Feature", "principal": "Tom Kaiser/Paul Adler"}, {"name": "FREEDOM ACADEMY HIGH SCHOOL", "geometry": {"type": "Point", "coordinates": ["-73.986548", "40.6984466"]}, "address": "116 nassau street, NY, 11201", "borough": "Brooklyn", "type": "Feature", "principal": "ALYSON FORDE"}, {"name": "WORLD ACADEMY FOR TOTAL COMMUNITY HEALTH HIGH SCHO", "geometry": {"type": "Point", "coordinates": ["-73.8947915", "40.6676012"]}, "address": "400 pennsylvania avenue, NY, 11207", "borough": "Brooklyn", "type": "Feature", "principal": "KIM WANLISS"}, {"name": "FREDERICK DOUGLASS ACADEMY VII HIGH SCHOOL", "geometry": {"type": "Point", "coordinates": ["-73.9116714", "40.6657215"]}, "address": "226 bristol street, NY, 11212", "borough": "Brooklyn", "type": "Feature", "principal": "TAMIKA MATHESON"}, {"name": "LEADERSHIP PREP CHARTER SCHOOL", "geometry": {"type": "Point", "coordinates": ["-73.9455062", "40.6818521"]}, "address": "141 macon street, NY, 11216", "borough": "Brooklyn", "type": "Feature", "principal": "Sultanna Noormuhammad"}, {"name": "KAPPA V", "geometry": {"type": "Point", "coordinates": ["-73.9070048", "40.6557176"]}, "address": "985 rockaway avenue, NY, 11212", "borough": "Brooklyn", "type": "Feature", "principal": "DELLIE EDWARDS"}, {"name": "COBBLE HILL SCHOOL OF AMERICAN STUDIES", "geometry": {"type": "Point", "coordinates": ["-73.990581", "40.684722"]}, "address": "347 baltic street, NY, 11201", "borough": "Brooklyn", "type": "Feature", "principal": "Annamaria Mule"}, {"name": "PACIFIC HIGH SCHOOL", "geometry": {"type": "Point", "coordinates": ["-73.9893009", "40.6901036"]}, "address": "112 schermerhorn street, NY, 11201", "borough": "Brooklyn", "type": "Feature", "principal": "Gardy Alabre/Laurie Harrit*"}, {"name": "MOTT HALL IV", "geometry": {"type": "Point", "coordinates": ["-73.9161859", "40.6778293"]}, "address": "1137 herkimer street, NY, 11233", "borough": "Brooklyn", "type": "Feature", "principal": "THOMAS MCBRYDE JR"}, {"name": "INTERNATIONAL HIGH SCHOOL AT PROSPECT HEIGHTS", "geometry": {"type": "Point", "coordinates": ["-73.960668", "40.669806"]}, "address": "883 classon avenue, NY, 11225", "borough": "Brooklyn", "type": "Feature", "principal": "Nedda De Castro"}, {"name": "EDWARD R. MURROW HIGH SCHOOL", "geometry": {"type": "Point", "coordinates": ["-73.959961", "40.620457"]}, "address": "1600 avenue l, NY, 11230", "borough": "Brooklyn", "type": "Feature", "principal": "Anthony R. Lodico"}, {"name": "URBAN ASSEMBLY INSTITUTE OF MATH AND SCIENCE FOR Y", "geometry": {"type": "Point", "coordinates": ["-73.9883234", "40.6946578"]}, "address": "283 adams street, NY, 11201", "borough": "Brooklyn", "type": "Feature", "principal": "Kiri Soares"}, {"name": "HIGH SCHOOL FOR GLOBAL CITIZENSHIP, THE", "geometry": {"type": "Point", "coordinates": ["-73.960668", "40.669806"]}, "address": "883 classon avenue, NY, 11225", "borough": "Brooklyn", "type": "Feature", "principal": "Michelle Rochon"}, {"name": "WEST BROOKLYN COMMUNITY HIGH SCHOOL", "geometry": {"type": "Point", "coordinates": ["-73.9925388", "40.642723"]}, "address": "1053 41st street, NY, 11219", "borough": "Brooklyn", "type": "Feature", "principal": "LILIANA POLO"}, {"name": "METROPOLITAN CORPORATE ACADEMY HIGH SCHOOL", "geometry": {"type": "Point", "coordinates": ["-73.9801287", "40.6867542"]}, "address": "362 schermerhorn street, NY, 11217", "borough": "Brooklyn", "type": "Feature", "principal": "LENNEL GEORGE"}, {"name": "SCHOOL FOR HUMAN RIGHTS, THE", "geometry": {"type": "Point", "coordinates": ["-73.943838", "40.658665"]}, "address": "600 kingston avenue, NY, 11203", "borough": "Brooklyn", "type": "Feature", "principal": "MICHAEL ALEXANDER"}, {"name": "SCHOOL FOR DEMOCRACY AND  LEADERSHIP", "geometry": {"type": "Point", "coordinates": ["-73.943838", "40.658665"]}, "address": "600 kingston avenue, NY, 11203", "borough": "Brooklyn", "type": "Feature", "principal": "REBECCA OSTRO"}, {"name": "UPPER SCHOOL @ P.S. 25", "geometry": {"type": "Point", "coordinates": ["-73.9406204", "40.6912257"]}, "address": "787 lafayette avenue, NY, 11221", "borough": "Brooklyn", "type": "Feature", "principal": "WILLIAM COOPER"}, {"name": "LEON M. GOLDSTEIN HIGH SCHOOL FOR THE SCIENCES", "geometry": {"type": "Point", "coordinates": ["-73.9351412", "40.5808957"]}, "address": "1830 shore boulevard, NY, 11235", "borough": "Brooklyn", "type": "Feature", "principal": "JOSEPH ZAZA"}, {"name": "COMMUNITY ROOTS CHARTER SCHOOL", "geometry": {"type": "Point", "coordinates": ["-73.9779989", "40.694464"]}, "address": "51 saint edwards street, NY, 11205", "borough": "Brooklyn", "type": "Feature", "principal": "Allison Keil/Sara Stone"}, {"name": "HIGH SCHOOL FOR YOUTH AND COMMUNITY DEVELOPMENT AT", "geometry": {"type": "Point", "coordinates": ["-73.9585008", "40.6495418"]}, "address": "911 flatbush avenue, NY, 11226", "borough": "Brooklyn", "type": "Feature", "principal": "MARY PRENDERGAST"}, {"name": "HIGH SCHOOL FOR SERVICE & LEARNING AT ERASMUS", "geometry": {"type": "Point", "coordinates": ["-73.9585008", "40.6495418"]}, "address": "911 flatbush avenue, NY, 11226", "borough": "Brooklyn", "type": "Feature", "principal": "LEONARD KASSAN"}, {"name": "JOHN DEWEY HIGH SCHOOL", "geometry": {"type": "Point", "coordinates": ["-73.9818322", "40.5892496"]}, "address": "50 avenue x, NY, 11223", "borough": "Brooklyn", "type": "Feature", "principal": "BARRY FRIED"}, {"name": "SCIENCE, TECHNOLOGY AND RESEARCH EARLY COLLEGE HIG", "geometry": {"type": "Point", "coordinates": ["-73.9585008", "40.6495418"]}, "address": "911 flatbush avenue, NY, 11226", "borough": "Brooklyn", "type": "Feature", "principal": "Dr. Eric L. Blake"}, {"name": "INTERNATIONAL ARTS BUSINESS SCHOOL", "geometry": {"type": "Point", "coordinates": ["-73.943838", "40.658665"]}, "address": "600 kingston avenue, NY, 11203", "borough": "Brooklyn", "type": "Feature", "principal": "Ms. Sheila Hanley"}, {"name": 